{
    "res-schools": [
        {
            "id": 0,
            "name": "Assumption",
            "city": "Hay Lakes",
            "province": "Alberta",
            "denomination": "Catholic",
            "latitude": "53.196621",
            "longitude": "-113.052299",
            "post code": "T0B 1W0",
            "year opened": "1951",
            "year closed": "1974"
        },
        {
            "id": 1,
            "name": "Blue Quills",
            "city": "Saddle Lake",
            "province": "Alberta",
            "denomination": "Catholic",
            "latitude": "53.976870",
            "longitude": "-111.695640",
            "post code": "T0A 0A1",
            "year opened": "1898",
            "year closed": "1990"
        },
        {
            "id": 2,
            "name": "Crowfoot/St Josephs",
            "city": "Cluny",
            "province": "Alberta",
            "denomination": "Catholic",
            "latitude": "50.836047",
            "longitude": "-112.866848",
            "post code": "T0J 0S0",
            "year opened": "1900",
            "year closed": "1968"
        },
        {
            "id": 3,
            "name": "Desmarais or St Martins",
            "city": "Desmarais-Wabasca",
            "province": "Alberta",
            "denomination": "Catholic",
            "latitude": "55.942964",
            "longitude": "-113.801857",
            "post code": "T0J 0S0",
            "year opened": "1902",
            "year closed": "1973"
        },
        {
            "id": 4,
            "name": "Edmonton or Poundmaker",
            "city": "St Albert",
            "province": "Alberta",
            "denomination": "United",
            "latitude": "53.630475",
            "longitude": "-113.625642",
            "post code": "T8N 5N6",
            "year opened": "1924",
            "year closed": "1968"
        },
        {
            "id": 5,
            "name": "Ermineskin or Hobbema",
            "city": "Maskwacis",
            "province": "Alberta",
            "denomination": "Catholic",
            "latitude": "52.786021",
            "longitude": "-113.428373",
            "post code": "T0C 1N0",
            "year opened": "1895",
            "year closed": "1975"
        },
        {
            "id": 6,
            "name": "Fort Vermilion or St Henri",
            "city": "Fort Vermilion",
            "province": "Alberta",
            "denomination": "Catholic",
            "latitude": "58.386811",
            "longitude": "-116.011801",
            "post code": "T0H 1N0",
            "year opened": "1903",
            "year closed": "1968"
        },
        {
            "id": 7,
            "name": "Grouard",
            "city": "Grouard",
            "province": "Alberta",
            "denomination": "Catholic",
            "latitude": "55.523223",
            "longitude": "-116.159278",
            "post code": "T0G 1C0",
            "year opened": "1894",
            "year closed": "1957"
        },
        {
            "id": 8,
            "name": "Holy Angels",
            "city": "Fort Chipewyan",
            "province": "Alberta",
            "denomination": "Catholic",
            "latitude": "58.719637",
            "longitude": "-111.140697",
            "post code": "T0P 1B0",
            "year opened": "1900",
            "year closed": "1974"
        },
        {
            "id": 9,
            "name": "Joussard or St Brunos",
            "city": "Joussard",
            "province": "Alberta",
            "denomination": "Catholic",
            "latitude": "55.397153",
            "longitude": "-115.952693",
            "post code": "T0G 1J0",
            "year opened": "1913",
            "year closed": "1969"
        },
        {
            "id": 10,
            "name": "Lac La Biche or Notre Dame des Victoires",
            "city": "Lac La Biche",
            "province": "Alberta",
            "denomination": "Catholic",
            "latitude": "54.769642",
            "longitude": "-111.972514",
            "post code": "T0A 2C1",
            "year opened": "1893",
            "year closed": "1898"
        },
        {
            "id": 11,
            "name": "Lesser Slave Lake",
            "city": "Lesser Slave Lake",
            "province": "Alberta",
            "denomination": "Anglican",
            "latitude": "55.431256",
            "longitude": "-115.603896",
            "post code": "T0G 0N0",
            "year opened": "1895",
            "year closed": "1932"
        },
        {
            "id": 12,
            "name": "Morley",
            "city": "Morley",
            "province": "Alberta",
            "denomination": "Methodist United",
            "latitude": "51.161543",
            "longitude": "-114.850968",
            "post code": "T0L 1N0",
            "year opened": "1922",
            "year closed": "1969"
        },
        {
            "id": 13,
            "name": "Old Sun",
            "city": "Gleichen",
            "province": "Alberta",
            "denomination": "Anglican",
            "latitude": "50.870189",
            "longitude": "-113.155053",
            "post code": "T0J 1N0",
            "year opened": "1886",
            "year closed": "1971"
        },
        {
            "id": 14,
            "name": "Sacred Heart",
            "city": "Brocket",
            "province": "Alberta",
            "denomination": "Catholic",
            "latitude": "49.52",
            "longitude": "-113.93",
            "post code": "T0K 1W0",
            "year opened": "1887",
            "year closed": "1961"
        },
        {
            "id": 15,
            "name": "St Albert Youville",
            "city": "St Albert",
            "province": "Alberta",
            "denomination": "Catholic",
            "latitude": "53.630475",
            "longitude": "-113.625642",
            "post code": "T8N 1K1",
            "year opened": "1873",
            "year closed": "1948"
        },
        {
            "id": 16,
            "name": "Red Deer Industrial School",
            "city": "Red Deer",
            "province": "Alberta",
            "denomination": "Methodist",
            "latitude": "52.268112",
            "longitude": "-113.811239",
            "post code": "T4R 3N7",
            "year opened": "1893",
            "year closed": "1919"
        },
        {
            "id": 17,
            "name": "Sarcee/St Barnabas",
            "city": "T'suu Tina",
            "province": "Alberta",
            "denomination": "Anglican",
            "latitude": "50.950029",
            "longitude": "-114.141184",
            "post code": "T3T 0A2",
            "year opened": "1892",
            "year closed": "1921"
        },
        {
            "id": 18,
            "name": "St Augustine/Smoky River",
            "city": "Peace River",
            "province": "Alberta",
            "denomination": "Catholic",
            "latitude": "56.230976",
            "longitude": "-117.288829",
            "post code": "T8S 1V8",
            "year opened": "1900",
            "year closed": "1907"
        },
        {
            "id": 19,
            "name": "St Cyprians/Queen Victorias Jubilee Home",
            "city": "Brocket",
            "province": "Alberta",
            "denomination": "Anglican",
            "latitude": "49.52",
            "longitude": "-113.93",
            "post code": "T0K 1W0",
            "year opened": "1890",
            "year closed": "1961"
        },
        {
            "id": 20,
            "name": "St Josephs/Dunbow",
            "city": "High River",
            "province": "Alberta",
            "denomination": "Catholic",
            "latitude": "50.581619",
            "longitude": "-113.93",
            "post code": "T1V 1M2",
            "year opened": "1884",
            "year closed": "1922"
        },
        {
            "id": 21,
            "name": "St Marys/Blood",
            "city": "Cardston",
            "province": "Alberta",
            "denomination": "Catholic",
            "latitude": "49.195066",
            "longitude": "-113.301798",
            "post code": "T0K 0K0",
            "year opened": "1884",
            "year closed": "1922"
        },
        {
            "id": 22,
            "name": "St Pauls/Blood",
            "city": "Cardston",
            "province": "Alberta",
            "denomination": "Anglican",
            "latitude": "49.195066",
            "longitude": "-113.301798",
            "post code": "T0K 0K0",
            "year opened": "1893",
            "year closed": "1975"
        },
        {
            "id": 23,
            "name": "Sturgeon Lake/Calais",
            "city": "Calais",
            "province": "Alberta",
            "denomination": "Catholic",
            "latitude": "55.07194",
            "longitude": "-117.53889",
            "post code": "T0H 0P0",
            "year opened": "1907",
            "year closed": "1961"
        },
        {
            "id": 24,
            "name": "Wabasca/St Johns",
            "city": "Wabasca",
            "province": "Alberta",
            "denomination": "Anglican",
            "latitude": "55.961614",
            "longitude": "-113.826698",
            "post code": "T0G 2K0",
            "year opened": "1902",
            "year closed": "1966"
        },
        {
            "id": 24,
            "name": "Whitefish Lake/St Andrews",
            "city": "Whitefish Lake",
            "province": "Alberta",
            "denomination": "Anglican",
            "latitude": "54.368275",
            "longitude": "-111.899378",
            "post code": "T0A 3L0",
            "year opened": "1908",
            "year closed": "1950"
        },
        {
            "id": 25,
            "name": "Ahousaht",
            "city": "Ahousaht",
            "province": "British Columbia",
            "denomination": "Presbyterian United",
            "latitude": "49.276149",
            "longitude": "-126.059018",
            "post code": "T0A 3L0",
            "year opened": "1908",
            "year closed": "1950"
        }
    ]
}