{
    "res_schools": [
        {
            "id": 0,
            "name": "Assumption",
            "city": "Hay Lakes",
            "province": "Alberta",
            "denomination": "Catholic",
            "latitude": "53.196621",
            "longitude": "-113.052299",
            "post_code": "T0B 1W0",
            "year_opened": "1951",
            "year_closed": "1974"
        },
        {
            "id": 1,
            "name": "Blue Quills",
            "city": "Saddle Lake",
            "province": "Alberta",
            "denomination": "Catholic",
            "latitude": "53.976870",
            "longitude": "-111.695640",
            "post_code": "T0A 0A1",
            "year_opened": "1898",
            "year_closed": "1990"
        },
        {
            "id": 2,
            "name": "Crowfoot/St Josephs",
            "city": "Cluny",
            "province": "Alberta",
            "denomination": "Catholic",
            "latitude": "50.836047",
            "longitude": "-112.866848",
            "post_code": "T0J 0S0",
            "year_opened": "1900",
            "year_closed": "1968"
        },
        {
            "id": 3,
            "name": "Desmarais or St Martins",
            "city": "Desmarais-Wabasca",
            "province": "Alberta",
            "denomination": "Catholic",
            "latitude": "55.942964",
            "longitude": "-113.801857",
            "post_code": "T0J 0S0",
            "year_opened": "1902",
            "year_closed": "1973"
        },
        {
            "id": 4,
            "name": "Edmonton or Poundmaker",
            "city": "St Albert",
            "province": "Alberta",
            "denomination": "United",
            "latitude": "53.630475",
            "longitude": "-113.625642",
            "post_code": "T8N 5N6",
            "year_opened": "1924",
            "year_closed": "1968"
        },
        {
            "id": 5,
            "name": "Ermineskin or Hobbema",
            "city": "Maskwacis",
            "province": "Alberta",
            "denomination": "Catholic",
            "latitude": "52.786021",
            "longitude": "-113.428373",
            "post_code": "T0C 1N0",
            "year_opened": "1895",
            "year_closed": "1975"
        },
        {
            "id": 6,
            "name": "Fort Vermilion or St Henri",
            "city": "Fort Vermilion",
            "province": "Alberta",
            "denomination": "Catholic",
            "latitude": "58.386811",
            "longitude": "-116.011801",
            "post_code": "T0H 1N0",
            "year_opened": "1903",
            "year_closed": "1968"
        },
        {
            "id": 7,
            "name": "Grouard",
            "city": "Grouard",
            "province": "Alberta",
            "denomination": "Catholic",
            "latitude": "55.523223",
            "longitude": "-116.159278",
            "post_code": "T0G 1C0",
            "year_opened": "1894",
            "year_closed": "1957"
        },
        {
            "id": 8,
            "name": "Holy Angels",
            "city": "Fort Chipewyan",
            "province": "Alberta",
            "denomination": "Catholic",
            "latitude": "58.719637",
            "longitude": "-111.140697",
            "post_code": "T0P 1B0",
            "year_opened": "1900",
            "year_closed": "1974"
        },
        {
            "id": 9,
            "name": "Joussard or St Brunos",
            "city": "Joussard",
            "province": "Alberta",
            "denomination": "Catholic",
            "latitude": "55.397153",
            "longitude": "-115.952693",
            "post_code": "T0G 1J0",
            "year_opened": "1913",
            "year_closed": "1969"
        },
        {
            "id": 10,
            "name": "Lac La Biche or Notre Dame des Victoires",
            "city": "Lac La Biche",
            "province": "Alberta",
            "denomination": "Catholic",
            "latitude": "54.769642",
            "longitude": "-111.972514",
            "post_code": "T0A 2C1",
            "year_opened": "1893",
            "year_closed": "1898"
        },
        {
            "id": 11,
            "name": "Lesser Slave Lake",
            "city": "Lesser Slave Lake",
            "province": "Alberta",
            "denomination": "Anglican",
            "latitude": "55.431256",
            "longitude": "-115.603896",
            "post_code": "T0G 0N0",
            "year_opened": "1895",
            "year_closed": "1932"
        },
        {
            "id": 12,
            "name": "Morley",
            "city": "Morley",
            "province": "Alberta",
            "denomination": "Methodist United",
            "latitude": "51.161543",
            "longitude": "-114.850968",
            "post_code": "T0L 1N0",
            "year_opened": "1922",
            "year_closed": "1969"
        },
        {
            "id": 13,
            "name": "Old Sun",
            "city": "Gleichen",
            "province": "Alberta",
            "denomination": "Anglican",
            "latitude": "50.870189",
            "longitude": "-113.155053",
            "post_code": "T0J 1N0",
            "year_opened": "1886",
            "year_closed": "1971"
        },
        {
            "id": 14,
            "name": "Sacred Heart",
            "city": "Brocket",
            "province": "Alberta",
            "denomination": "Catholic",
            "latitude": "49.52",
            "longitude": "-113.93",
            "post_code": "T0K 1W0",
            "year_opened": "1887",
            "year_closed": "1961"
        },
        {
            "id": 15,
            "name": "St Albert Youville",
            "city": "St Albert",
            "province": "Alberta",
            "denomination": "Catholic",
            "latitude": "53.630475",
            "longitude": "-113.625642",
            "post_code": "T8N 1K1",
            "year_opened": "1873",
            "year_closed": "1948"
        },
        {
            "id": 16,
            "name": "Red Deer Industrial School",
            "city": "Red Deer",
            "province": "Alberta",
            "denomination": "Methodist",
            "latitude": "52.268112",
            "longitude": "-113.811239",
            "post_code": "T4R 3N7",
            "year_opened": "1893",
            "year_closed": "1919"
        },
        {
            "id": 17,
            "name": "Sarcee/St Barnabas",
            "city": "T'suu Tina",
            "province": "Alberta",
            "denomination": "Anglican",
            "latitude": "50.950029",
            "longitude": "-114.141184",
            "post_code": "T3T 0A2",
            "year_opened": "1892",
            "year_closed": "1921"
        },
        {
            "id": 18,
            "name": "St Augustine/Smoky River",
            "city": "Peace River",
            "province": "Alberta",
            "denomination": "Catholic",
            "latitude": "56.230976",
            "longitude": "-117.288829",
            "post_code": "T8S 1V8",
            "year_opened": "1900",
            "year_closed": "1907"
        },
        {
            "id": 19,
            "name": "St Cyprians/Queen Victorias Jubilee Home",
            "city": "Brocket",
            "province": "Alberta",
            "denomination": "Anglican",
            "latitude": "49.52",
            "longitude": "-113.93",
            "post_code": "T0K 1W0",
            "year_opened": "1890",
            "year_closed": "1961"
        },
        {
            "id": 20,
            "name": "St Josephs/Dunbow",
            "city": "High River",
            "province": "Alberta",
            "denomination": "Catholic",
            "latitude": "50.581619",
            "longitude": "-113.93",
            "post_code": "T1V 1M2",
            "year_opened": "1884",
            "year_closed": "1922"
        },
        {
            "id": 21,
            "name": "St Marys/Blood",
            "city": "Cardston",
            "province": "Alberta",
            "denomination": "Catholic",
            "latitude": "49.195066",
            "longitude": "-113.301798",
            "post_code": "T0K 0K0",
            "year_opened": "1884",
            "year_closed": "1922"
        },
        {
            "id": 22,
            "name": "St Pauls/Blood",
            "city": "Cardston",
            "province": "Alberta",
            "denomination": "Anglican",
            "latitude": "49.195066",
            "longitude": "-113.301798",
            "post_code": "T0K 0K0",
            "year_opened": "1893",
            "year_closed": "1975"
        },
        {
            "id": 23,
            "name": "Sturgeon Lake/Calais",
            "city": "Calais",
            "province": "Alberta",
            "denomination": "Catholic",
            "latitude": "55.07194",
            "longitude": "-117.53889",
            "post_code": "T0H 0P0",
            "year_opened": "1907",
            "year_closed": "1961"
        },
        {
            "id": 24,
            "name": "Wabasca/St Johns",
            "city": "Wabasca",
            "province": "Alberta",
            "denomination": "Anglican",
            "latitude": "55.961614",
            "longitude": "-113.826698",
            "post_code": "T0G 2K0",
            "year_opened": "1902",
            "year_closed": "1966"
        },
        {
            "id": 24,
            "name": "Whitefish Lake/St Andrews",
            "city": "Whitefish Lake",
            "province": "Alberta",
            "denomination": "Anglican",
            "latitude": "54.368275",
            "longitude": "-111.899378",
            "post_code": "T0A 3L0",
            "year_opened": "1908",
            "year_closed": "1950"
        },
        {
            "id": 25,
            "name": "Ahousaht",
            "city": "Ahousaht",
            "province": "British Columbia",
            "denomination": "Presbyterian United",
            "latitude": "49.276149",
            "longitude": "-126.059018",
            "post_code": "V0R 1A0",
            "year_opened": "1904",
            "year_closed": "1940"
        },
        {
            "id": 26,
            "name": "Alberni",
            "city": "Port Alberni",
            "province": "British Columbia",
            "denomination": "Presbyterian United",
            "latitude": "49.233888",
            "longitude": "-124.805549",
            "post_code": "V9Y 1T9",
            "year_opened": "1900",
            "year_closed": "1973"
        },
        {
            "id": 27,
            "name": "Anahim Lake Dormitory/Ulkatcho",
            "city": "Anahim Lake",
            "province": "British Columbia",
            "denomination": "Catholic",
            "latitude": "52.466667",
            "longitude": "-125.316667",
            "post_code": "V0L 1C0",
            "year_opened": "1968",
            "year_closed": "1977"
        },
        {
            "id": 28,
            "name": "Cariboo/Williams Lake",
            "city": "Williams Lake",
            "province": "British Columbia",
            "denomination": "Catholic",
            "latitude": "52.134171",
            "longitude": "-122.138702",
            "post_code": "V2G 0A3",
            "year_opened": "1891",
            "year_closed": "1981"
        },
        {
            "id": 29,
            "name": "Christie/Tofino",
            "city": "Meares Island/Tofino",
            "province": "British Columbia",
            "denomination": "Catholic",
            "latitude": "49.181824",
            "longitude": "-125.83143",
            "post_code": "V0R 2Z0",
            "year_opened": "1900",
            "year_closed": "1983"
        },
        {
            "id": 30,
            "name": "Coqualeetza/Chilliwack Home",
            "city": "Chilliwack/Sardis",
            "province": "British Columbia",
            "denomination": "Methodist United",
            "latitude": "49.181824",
            "longitude": "-125.83143",
            "post_code": "V2P 6H6",
            "year_opened": "1889",
            "year_closed": "1940"
        },
        {
            "id": 31,
            "name": "Cranbrook/St Eugenes",
            "city": "Cranbrook",
            "province": "British Columbia",
            "denomination": "Catholic",
            "latitude": "49.512968",
            "longitude": "-115.7694",
            "post_code": "V1C 4H5",
            "year_opened": "1890",
            "year_closed": "1970"
        },
        {
            "id": 32,
            "name": "Kamloops/St Louis",
            "city": "Kamloops",
            "province": "British Columbia",
            "denomination": "Catholic",
            "latitude": "50.676111",
            "longitude": "-120.340833",
            "post_code": "V2C 5K2",
            "year_opened": "1890",
            "year_closed": "1978"
        },
        {
            "id": 33,
            "name": "Kitimaat/Elizabeth Long Memorial Home for Girls",
            "city": "Kitimat",
            "province": "British Columbia",
            "denomination": "Methodist United",
            "latitude": "54.062911",
            "longitude": "-128.638353",
            "post_code": "V8C 2G5",
            "year_opened": "1908",
            "year_closed": "1941"
        },
        {
            "id": 34,
            "name": "Kuper Island",
            "city": "Penelakut Island",
            "province": "British Columbia",
            "denomination": "Catholic",
            "latitude": "48.959084",
            "longitude": "-123.644931",
            "post_code": "V0R 5K0",
            "year_opened": "1890",
            "year_closed": "1975"
        },
        {
            "id": 35,
            "name": "Lejac/Stuart Lake",
            "city": "Fraser Lake",
            "province": "British Columbia",
            "denomination": "Catholic",
            "latitude": "54.05623",
            "longitude": "-124.849555",
            "post_code": "V0J 1S0",
            "year_opened": "1917",
            "year_closed": "1976"
        },
        {
            "id": 36,
            "name": "Lower Post",
            "city": "Lower Post",
            "province": "British Columbia",
            "denomination": "Catholic",
            "latitude": "59.924238",
            "longitude": "-128.496221",
            "post_code": "V0C 1W0",
            "year_opened": "1951",
            "year_closed": "1975"
        },
        {
            "id": 37,
            "name": "Port Simpson/Crosby Home for Girls",
            "city": "Port Simpson",
            "province": "British Columbia",
            "denomination": "Methodist United",
            "latitude": "54.577972",
            "longitude": "-130.427895",
            "post_code": "V0V 1H0",
            "year_opened": "1892",
            "year_closed": "1948"
        },
        {
            "id": 38,
            "name": "Sechelt/St Augustines",
            "city": "Sechelt",
            "province": "British Columbia",
            "denomination": "Catholic",
            "latitude": "49.474174",
            "longitude": "-123.75456",
            "post_code": "V0N 3A0",
            "year_opened": "1904",
            "year_closed": "1975"
        },
        {
            "id": 39,
            "name": "St Georges/Lytton",
            "city": "Lytton",
            "province": "British Columbia",
            "denomination": "Anglican",
            "latitude": "50.233258",
            "longitude": "-121.581404",
            "post_code": "V0K 1Z0",
            "year_opened": "1901",
            "year_closed": "1979"
        },
        {
            "id": 40,
            "name": "St Marys/Mission",
            "city": "Mission",
            "province": "British Columbia",
            "denomination": "Catholic",
            "latitude": "49.132927",
            "longitude": "-122.32616",
            "post_code": "V2V 4J2",
            "year_opened": "1867",
            "year_closed": "1984"
        },
        {
            "id": 41,
            "name": "St Michaels/Alert Bay",
            "city": "Alert Bay",
            "province": "British Columbia",
            "denomination": "Anglican",
            "latitude": "50.587694",
            "longitude": "-126.938179",
            "post_code": "V0N 1A0",
            "year_opened": "1894",
            "year_closed": "1974"
        },
        {
            "id": 42,
            "name": "St Pauls/Squamish",
            "city": "Squamish",
            "province": "British Columbia",
            "denomination": "Catholic",
            "latitude": "49.699666",
            "longitude": "-123.155096",
            "post_code": "V8B 0J2",
            "year_opened": "1899",
            "year_closed": "1959"
        },
        {
            "id": 43,
            "name": "Assiniboia",
            "city": "Winnipeg",
            "province": "Manitoba",
            "denomination": "Catholic",
            "latitude": "49.895136",
            "longitude": "-97.138374",
            "post_code": "R3C 0M2",
            "year_opened": "1958",
            "year_closed": "1973"
        },
        {
            "id": 44,
            "name": "Birtle",
            "city": "Birtle",
            "province": "Manitoba",
            "denomination": "Presbyterian",
            "latitude": "50.422134",
            "longitude": "-101.045201",
            "post_code": "R0M 0C0",
            "year_opened": "1888",
            "year_closed": "1970"
        },
        {
            "id": 45,
            "name": "Brandon",
            "city": "Brandon",
            "province": "Manitoba",
            "denomination": "Presbyterian",
            "latitude": "49.848471",
            "longitude": "-99.95009",
            "post_code": "R0M 0C0",
            "year_opened": "1895",
            "year_closed": "1972"
        },
        {
            "id": 46,
            "name": "Churchill",
            "city": "Churchill",
            "province": "Manitoba",
            "denomination": "Non-Demoninational",
            "latitude": "58.768411",
            "longitude": "-94.164964",
            "post_code": "R0B 0E0",
            "year_opened": "1964",
            "year_closed": "1973"
        },
        {
            "id": 47,
            "name": "Cross Lake",
            "city": "Cross Lake",
            "province": "Manitoba",
            "denomination": "Catholic",
            "latitude": "54.625632",
            "longitude": "-97.779637",
            "post_code": "R0B 0J0",
            "year_opened": "1912",
            "year_closed": "1969"
        },
        {
            "id": 48,
            "name": "Elkhorn/Washakada",
            "city": "Elkhorn",
            "province": "Manitoba",
            "denomination": "Anglican",
            "latitude": "48.554842",
            "longitude": "-88.87385",
            "post_code": "R0M 0N0",
            "year_opened": "1889",
            "year_closed": "1949"
        },
        {
            "id": 49,
            "name": "Fort Alexander/Pine Falls",
            "city": "Fort Alexander",
            "province": "Manitoba",
            "denomination": "Catholic",
            "latitude": "50.600912",
            "longitude": "-96.29054",
            "post_code": "R0E 0P0",
            "year_opened": "1905",
            "year_closed": "1970"
        },
        {
            "id": 50,
            "name": "Guy Hill/Clearwater",
            "city": "The Pas",
            "province": "Manitoba",
            "denomination": "Catholic",
            "latitude": "53.825527",
            "longitude": "-101.247613",
            "post_code": "R9A 1K2",
            "year_opened": "1952",
            "year_closed": "1979"
        },
        {
            "id": 51,
            "name": "McKay/Dauphin",
            "city": "Dauphin",
            "province": "Manitoba",
            "denomination": "Anglican",
            "latitude": "51.150037",
            "longitude": "-100.0497",
            "post_code": "R7N 2T3",
            "year_opened": "1914",
            "year_closed": "1988"
        },
        {
            "id": 52,
            "name": "Norway House/Rossville",
            "city": "Norway House",
            "province": "Manitoba",
            "denomination": "Methodist United",
            "latitude": "53.982065",
            "longitude": "-97.832932",
            "post_code": "R0B 1B0",
            "year_opened": "1899",
            "year_closed": "1967"
        },
        {
            "id": 53,
            "name": "Notre Dame Hostel/Jack River Annex",
            "city": "Cross Lake",
            "province": "Manitoba",
            "denomination": "Catholic",
            "latitude": "54.625632",
            "longitude": "-97.779637",
            "post_code": "R0B 0J0",
            "year_opened": "1960",
            "year_closed": "1967"
        },
        {
            "id": 54,
            "name": "Pine Creek/Camperville",
            "city": "Camperville",
            "province": "Manitoba",
            "denomination": "Catholic",
            "latitude": "51.987846",
            "longitude": "-100.147958",
            "post_code": "R0L 0J0",
            "year_opened": "1890",
            "year_closed": "1969"
        },
        {
            "id": 55,
            "name": "Portage la Prairie",
            "city": "Portage la Prairie",
            "province": "Manitoba",
            "denomination": "Presbyterian United",
            "latitude": "49.972321",
            "longitude": "-98.290325",
            "post_code": "R1N 3A7",
            "year_opened": "1891",
            "year_closed": "1975"
        },
        {
            "id": 56,
            "name": "Sandy Bay",
            "city": "Marius",
            "province": "Manitoba",
            "denomination": "Catholic",
            "latitude": "50.527844",
            "longitude": "-98.689763",
            "post_code": "R0H 0T0",
            "year_opened": "1905",
            "year_closed": "1970"
        },
        {
            "id": 57,
            "name": "Akaitcho Hall/Yellowknife Federal Hostel",
            "city": "Yellowknife",
            "province": "Nortwest Territories",
            "denomination": "Non-Denominational",
            "latitude": "62.453972",
            "longitude": "-114.371789",
            "post_code": "X1A 2L8",
            "year_opened": "1958",
            "year_closed": "1994"
        },
        {
            "id": 58,
            "name": "All Saints/Aklavik Anglican",
            "city": "Aklavik",
            "province": "Nortwest Territories",
            "denomination": "Anglican",
            "latitude": "68.219916",
            "longitude": "-135.007788",
            "post_code": "X0E 0A0",
            "year_opened": "1936",
            "year_closed": "1959"
        },
        {
            "id": 59,
            "name": "Bompas Hall/Koe Go Cho",
            "city": "Fort Simpson",
            "province": "Nortwest Territories",
            "denomination": "Anglican",
            "latitude": "61.332255",
            "longitude": "-122.097275",
            "post_code": "X0E 0N0",
            "year_opened": "1960",
            "year_closed": "1975"
        },
        {
            "id": 60,
            "name": "Breynat Hall/Fort Smith Hostel",
            "city": "Fort Smith",
            "province": "Nortwest Territories",
            "denomination": "Catholic",
            "latitude": "60.014159",
            "longitude": "-112.072999",
            "post_code": "X0E 0P0",
            "year_opened": "1957",
            "year_closed": "1975"
        },
        {
            "id": 62,
            "name": "Carcross/Choutla",
            "city": "Carcross",
            "province": "Yukon",
            "denomination": "Anglican",
            "latitude": "60.186027",
            "longitude": "-134.7006",
            "post_code": "X0E 0P0",
            "year_opened": "1903",
            "year_closed": "1969"
        },
        {
            "id": 63,
            "name": "Chesterfield Inlet/Turquetil Hall",
            "city": "Chesterfield Inlet",
            "province": "Nunavut",
            "denomination": "Catholic",
            "latitude": "62.813",
            "longitude": "-92.0812",
            "post_code": "X0C 0B0",
            "year_opened": "1954",
            "year_closed": "1969"
        },
        {
            "id": 64,
            "name": "Coudert Hall/Whitehorse Hostel",
            "city": "Whitehorse",
            "province": "Yukon",
            "denomination": "Catholic",
            "latitude": "60.721187",
            "longitude": "-135.056845",
            "post_code": "Y1A 4N2",
            "year_opened": "1960",
            "year_closed": "1971"
        },
        {
            "id": 65,
            "name": "Federal Hostel at Baker Lake/Qamani'tuaq",
            "city": "Qamanittuaq",
            "province": "Nunavut",
            "denomination": "Non-Denominational",
            "latitude": "64.324444",
            "longitude": "-96.001667",
            "post_code": "X0C 0A0",
            "year_opened": "1961",
            "year_closed": "1968"
        },
        {
            "id": 66,
            "name": "Federal Hostel at Belcher Islands",
            "city": "Flaherty Island (South Camp) / Sanikiluaq",
            "province": "Nunavut",
            "denomination": "Non-Denominational",
            "latitude": "56.540768",
            "longitude": "-79.22321",
            "post_code": "X0A 0W0",
            "year_opened": "1963",
            "year_closed": "1964"
        },
        {
            "id": 67,
            "name": "Federal Hostel at Broughton Island/Qikiqtarjuaq",
            "city": "Qikiqtarjuaq",
            "province": "Nunavut",
            "denomination": "Non-Denominational",
            "latitude": "67.558056",
            "longitude": "-64.024722",
            "post_code": "X0A 0B0",
            "year_opened": "1961",
            "year_closed": "1966"
        },
        {
            "id": 68,
            "name": "Federal Hostel at Cambridge Bay",
            "city": "Cambridge Bay",
            "province": "Nunavut",
            "denomination": "Non-Denominational",
            "latitude": "69.117222",
            "longitude": "-105.053056",
            "post_code": "X0B 0C0",
            "year_opened": "1964",
            "year_closed": "1997"
        },
        {
            "id": 69,
            "name": "Federal Hostel at Cape Dorset/Kinngait",
            "city": "Kinngait",
            "province": "Nunavut",
            "denomination": "Non-Denominational",
            "latitude": "64.228265",
            "longitude": "-76.542169",
            "post_code": "X0A 0C0",
            "year_opened": "1962",
            "year_closed": "1965"
        },
        {
            "id": 70,
            "name": "Federal Hostel at Eskimo Point/Arviat",
            "city": "Arviat",
            "province": "Nunavut",
            "denomination": "Non-Denominational",
            "latitude": "61.107828",
            "longitude": "-94.062369",
            "post_code": "X0C 0E0",
            "year_opened": "1962",
            "year_closed": "1967"
        },
        {
            "id": 71,
            "name": "Federal Hostel at Fort Franklin",
            "city": "Deline",
            "province": "Nortwest Territories",
            "denomination": "Non-Denominational",
            "latitude": "65.189085",
            "longitude": "-123.428489",
            "post_code": "X0E 0G0",
            "year_opened": "1967",
            "year_closed": "1972"
        },
        {
            "id": 72,
            "name": "Federal Hostel at Frobisher Bay/Ukkivik Student Residence",
            "city": "Iqaluit",
            "province": "Nunavut",
            "denomination": "Non-Denominational",
            "latitude": "63.746693",
            "longitude": "-68.516967",
            "post_code": "X0A 0H0",
            "year_opened": "1971",
            "year_closed": "1995"
        },
        {
            "id": 73,
            "name": "Federal Hostel at Igloolik/Iglulik",
            "city": "Igloolik",
            "province": "Nunavut",
            "denomination": "Non-Denominational",
            "latitude": "69.376111",
            "longitude": "-81.799444",
            "post_code": "X0A 0L0",
            "year_opened": "1961",
            "year_closed": "1969"
        },
        {
            "id": 74,
            "name": "Federal Hostel at Lake Harbor/Kimmirut Hostel",
            "city": "Kimmirut",
            "province": "Nunavut",
            "denomination": "Non-Denominational",
            "latitude": "62.847419",
            "longitude": "-69.869203",
            "post_code": "X0A 0N0",
            "year_opened": "1963",
            "year_closed": "1965"
        },
        {
            "id": 75,
            "name": "Federal Hostel at Panniqtuuq/Pangnirtung",
            "city": "Pangnirtung",
            "province": "Nunavut",
            "denomination": "Non-Denominational",
            "latitude": "66.146558",
            "longitude": "-65.701218",
            "post_code": "X0A 0R0",
            "year_opened": "1964",
            "year_closed": "1967"
        },
        {
            "id": 76,
            "name": "Federal Hostel at Pond Inlet/Mittimatalik",
            "city": "Pond Inlet",
            "province": "Nunavut",
            "denomination": "Non-Denominational",
            "latitude": "72.700117",
            "longitude": "-77.958532",
            "post_code": "X0A 0S0",
            "year_opened": "1962",
            "year_closed": "1970"
        },
        {
            "id": 77,
            "name": "Federal Tent Hostel at Coppermine",
            "city": "Kugluktuk",
            "province": "Nunavut",
            "denomination": "Anglican",
            "latitude": "67.825231",
            "longitude": "-115.09655",
            "post_code": "X0B 0E0",
            "year_opened": "1951",
            "year_closed": "1959"
        },
        {
            "id": 78,
            "name": "Fleming Hall/St Matthews Anglican Hostel",
            "city": "Fort McPherson",
            "province": "Northwest Territories",
            "denomination": "Anglican",
            "latitude": "67.436445",
            "longitude": "-134.880755",
            "post_code": "X0E 0J0",
            "year_opened": "1955",
            "year_closed": "1976"
        },
        {
            "id": 79,
            "name": "Grandin College",
            "city": "Fort Smith",
            "province": "Northwest Territories",
            "denomination": "Catholic",
            "latitude": "60.014159",
            "longitude": "-112.072999",
            "post_code": "X0E 0P0",
            "year_opened": "1960",
            "year_closed": "1985"
        },
        {
            "id": 80,
            "name": "Grollier Hall/Notre-Dame Residence",
            "city": "Inuvik",
            "province": "Northwest Territories",
            "denomination": "Catholic",
            "latitude": "68.360744",
            "longitude": "-133.723018",
            "post_code": "X0E 0T0",
            "year_opened": "1959",
            "year_closed": "1997"
        },
        {
            "id": 81,
            "name": "Hay River/All Saints",
            "city": "Hay River",
            "province": "Northwest Territories",
            "denomination": "Anglican",
            "latitude": "60.816218",
            "longitude": "-115.785365",
            "post_code": "X0E 0R0",
            "year_opened": "1959",
            "year_closed": "1997"
        },
        {
            "id": 82,
            "name": "Immaculate Conception/Aklavik Roman Catholic",
            "city": "Aklavik",
            "province": "Northwest Territories",
            "denomination": "Catholic",
            "latitude": "68.219916",
            "longitude": "-135.007788",
            "post_code": "X0E 0A0",
            "year_opened": "1926",
            "year_closed": "1959"
        },
        {
            "id": 83,
            "name": "Lapointe Hall/Deh Cho Hall",
            "city": "Fort Simpson",
            "province": "Northwest Territories",
            "denomination": "Catholic",
            "latitude": "61.332255",
            "longitude": "-122.097275",
            "post_code": "X0E 0N0",
            "year_opened": "1960",
            "year_closed": "1998"
        },
        {
            "id": 84,
            "name": "Sacred Heart/Providence Mission",
            "city": "Fort Providence",
            "province": "Northwest Territories",
            "denomination": "Catholic",
            "latitude": "61.357624",
            "longitude": "-117.660654",
            "post_code": "X0E 0L0",
            "year_opened": "1906",
            "year_closed": "1960"
        },
        {
            "id": 85,
            "name": "Shingle Point/St Johns",
            "city": "Shingle Point",
            "province": "Yukon",
            "denomination": "Anglican",
            "latitude": "68.988771",
            "longitude": "-137.362267",
            "post_code": " ",
            "year_opened": "1929",
            "year_closed": "1936"
        },
        {
            "id": 86,
            "name": "St Josephs/Fort Resolution",
            "city": "Fort Resolution",
            "province": "Northwest Territories",
            "denomination": "Catholic",
            "latitude": "61.017589",
            "longitude": "-113.733599",
            "post_code": "X0E 0M0",
            "year_opened": "1903",
            "year_closed": "1957"
        },
        {
            "id": 87,
            "name": "St Pauls Hostel",
            "city": "Fort Resolution",
            "province": "Yukon",
            "denomination": "Anglican",
            "latitude": "64.06007",
            "longitude": "-139.432035",
            "post_code": "Y0B 1G0",
            "year_opened": "1920",
            "year_closed": "1943"
        },
        {
            "id": 88,
            "name": "Stringer Hall/Inuvik Anglican Hostel",
            "city": "Inuvik",
            "province": "Northwest Territories",
            "denomination": "Anglican",
            "latitude": "68.360744",
            "longitude": "-133.723018",
            "post_code": "X0E 0T0",
            "year_opened": "1959",
            "year_closed": "1975"
        },
        {
            "id": 89,
            "name": "Whitehorse Baptist/Lee School",
            "city": "Whitehorse",
            "province": "Yukon",
            "denomination": "Baptist",
            "latitude": "60.721187",
            "longitude": "-135.056845",
            "post_code": "Y1A 4N2",
            "year_opened": "1947",
            "year_closed": "1960"
        },
        {
            "id": 90,
            "name": "Yukon Hall/Whitehorse",
            "city": "Whitehorse",
            "province": "Yukon",
            "denomination": "Non-Denominational",
            "latitude": "60.721187",
            "longitude": "-135.056845",
            "post_code": "Y1A 4N2",
            "year_opened": "1960",
            "year_closed": "1985"
        },
        {
            "id": 91,
            "name": "Bishop Horden Hall/Moose Factory",
            "city": "Moose Factory",
            "province": "Ontario",
            "denomination": "Anglican",
            "latitude": "51.262486",
            "longitude": "-80.592965",
            "post_code": "P0L 1W0",
            "year_opened": "1906",
            "year_closed": "1976"
        },
        {
            "id": 92,
            "name": "Cecilia Jeffrey/Shoal Lake",
            "city": "Kenora",
            "province": "Ontario",
            "denomination": "Presbyterian",
            "latitude": "49.793003",
            "longitude": "-94.466165",
            "post_code": "P9N 3W9",
            "year_opened": "1902",
            "year_closed": "1976"
        },
        {
            "id": 93,
            "name": "Chapleau/St Johns",
            "city": "Chapleau",
            "province": "Ontario",
            "denomination": "Anglican",
            "latitude": "47.844487",
            "longitude": "-83.404365",
            "post_code": "P0M IK0",
            "year_opened": "1907",
            "year_closed": "1948"
        },
        {
            "id": 94,
            "name": "Cristal Lake High School",
            "city": "Stirland Lake",
            "province": "Ontario",
            "denomination": "Mennonite",
            "latitude": "52.3367",
            "longitude": "-91.0406",
            "post_code": "",
            "year_opened": "1976",
            "year_closed": "1986"
        },
        {
            "id": 95,
            "name": "Fort Frances/Coochiching",
            "city": "Fort Frances",
            "province": "Ontario",
            "denomination": "Catholic",
            "latitude": "48.615278",
            "longitude": "-93.401667",
            "post_code": "P9A 3X7",
            "year_opened": "1906",
            "year_closed": "1974"
        },
        {
            "id": 96,
            "name": "Fort William/St Josephs",
            "city": "Fort William",
            "province": "Ontario",
            "denomination": "Catholic",
            "latitude": "48.382409",
            "longitude": "-89.245615",
            "post_code": "P7J 1H9",
            "year_opened": "1885",
            "year_closed": "1970"
        },
        {
            "id": 97,
            "name": "McIntosh/Kenora",
            "city": "McIntosh",
            "province": "Ontario",
            "denomination": "Catholic",
            "latitude": "49.979326",
            "longitude": "-93.602778",
            "post_code": "P7C 3B1",
            "year_opened": "1925",
            "year_closed": "1969"
        },
        {
            "id": 98,
            "name": "Mohawk Institute/Mechanics Institute",
            "city": "Brantford",
            "province": "Ontario",
            "denomination": "Anglican",
            "latitude": "43.152999",
            "longitude": "-80.263754",
            "post_code": "N3T 5M2",
            "year_opened": "1885",
            "year_closed": "1970"
        },
        {
            "id": 99,
            "name": "Mount Elgin/Munceytown",
            "city": "Muncey",
            "province": "Ontario",
            "denomination": "Methodist United",
            "latitude": "42.820147",
            "longitude": "-81.440304",
            "post_code": "N3T 5M2",
            "year_opened": "1867",
            "year_closed": "1946"
        },
        {
            "id": 100,
            "name": "Pelican Lake/Pelican Falls",
            "city": "Sioux Lookout",
            "province": "Ontario",
            "denomination": "Anglican",
            "latitude": "50.097832",
            "longitude": "-91.922038",
            "post_code": "P8T 1J6",
            "year_opened": "1927",
            "year_closed": "1978"
        },
        {
            "id": 101,
            "name": "Poplar Hill",
            "city": "Poplar Hill",
            "province": "Ontario",
            "denomination": "Mennonite",
            "latitude": "44.038475",
            "longitude": "-78.474404",
            "post_code": "P0V 3E0",
            "year_opened": "1962",
            "year_closed": "1989"
        },
        {
            "id": 102,
            "name": "Shingwauk/Wawanosh",
            "city": "Sioux Ste Marie",
            "province": "Ontario",
            "denomination": "Anglican",
            "latitude": "46.521858",
            "longitude": "-84.34609",
            "post_code": "P6A 5L1",
            "year_opened": "1878",
            "year_closed": "1970"
        },
        {
            "id": 103,
            "name": "Spanish Boys School/St Peter Claver",
            "city": "Spanish",
            "province": "Ontario",
            "denomination": "Catholic",
            "latitude": "46.194796",
            "longitude": "-82.342278",
            "post_code": "P0P 2A0",
            "year_opened": "1879",
            "year_closed": "1958"
        },
        {
            "id": 104,
            "name": "Spanish Girls School/St Annes",
            "city": "Spanish",
            "province": "Ontario",
            "denomination": "Catholic",
            "latitude": "46.194796",
            "longitude": "-82.342278",
            "post_code": "P0P 2A0",
            "year_opened": "1868",
            "year_closed": "1962"
        },
        {
            "id": 105,
            "name": "St Annes/Ft Albany",
            "city": "Fort Albany",
            "province": "Ontario",
            "denomination": "Catholic",
            "latitude": "52.213022",
            "longitude": "-81.682452",
            "post_code": "P0L 1H0",
            "year_opened": "1906",
            "year_closed": "1976"
        },
        {
            "id": 106,
            "name": "St Marys/St Anthonys",
            "city": "Kenora",
            "province": "Ontario",
            "denomination": "Catholic",
            "latitude": "49.793003",
            "longitude": "-94.466165",
            "post_code": "P9N 3W9",
            "year_opened": "1897",
            "year_closed": "1972"
        },
        {
            "id": 107,
            "name": "Stirland Lake High School/Wahbon Bay Academy",
            "city": "Stirland Lake",
            "province": "Ontario",
            "denomination": "Mennonite",
            "latitude": "52.3367",
            "longitude": "-91.0406",
            "post_code": "",
            "year_opened": "1971",
            "year_closed": "1991"
        },
        {
            "id": 108,
            "name": "Wawanosh Home",
            "city": "Sault Ste Marie",
            "province": "Ontario",
            "denomination": "Anglican",
            "latitude": "46.521858",
            "longitude": "-84.34609",
            "post_code": "P6A 5L1",
            "year_opened": "1879",
            "year_closed": "1892"
        },
        {
            "id": 109,
            "name": "Amos/Saint-Marc-de-Figuery",
            "city": "Amos",
            "province": "Quebec",
            "denomination": "Catholic",
            "latitude": "48.581999",
            "longitude": "-78.108601",
            "post_code": "J9T 2E1",
            "year_opened": "1955",
            "year_closed": "1973"
        },
        {
            "id": 110,
            "name": "Federal Hostel at George River/Kangiqsualujjuaq",
            "city": "Kangiqsualujjuaq",
            "province": "Quebec",
            "denomination": "Non-Denominational",
            "latitude": "58.710155",
            "longitude": "-65.995116",
            "post_code": "J0M 1N0",
            "year_opened": "1960",
            "year_closed": "1960"
        },
        {
            "id": 111,
            "name": "Federal Hostel at Great Whale River/Poste-de-la-Baleine",
            "city": "Kuujjuaraapik/Whapmagoostui",
            "province": "Quebec",
            "denomination": "Non-Denominational",
            "latitude": "55.25",
            "longitude": "-77.75",
            "post_code": "J0M 1G0",
            "year_opened": "1960",
            "year_closed": "1970"
        },
        {
            "id": 112,
            "name": "Federal Hostel at Payne Bay/Bellin",
            "city": "Kangirsuk",
            "province": "Quebec",
            "denomination": "Non-Denominational",
            "latitude": "60.028278",
            "longitude": "-70.043083",
            "post_code": "J0M 1A0",
            "year_opened": "1960",
            "year_closed": "1962"
        },
        {
            "id": 113,
            "name": "Federal Hostel at Port Harrison/Inoucdjouac",
            "city": "Inukjuak",
            "province": "Quebec",
            "denomination": "Non-Denominational",
            "latitude": "58.45591",
            "longitude": "-78.118156",
            "post_code": "J0M 1M0",
            "year_opened": "1960",
            "year_closed": "1971"
        },
        {
            "id": 114,
            "name": "Fort George Church of England/St Phillips",
            "city": "Fort George",
            "province": "Quebec",
            "denomination": "Anglican",
            "latitude": "45.828588",
            "longitude": "-74.195841",
            "post_code": "",
            "year_opened": "1933",
            "year_closed": "1975"
        },
        {
            "id": 115,
            "name": "Fort George Hostels",
            "city": "Fort George",
            "province": "Quebec",
            "denomination": "Non-Denominational",
            "latitude": "45.828588",
            "longitude": "-74.195841",
            "post_code": "",
            "year_opened": "1975",
            "year_closed": "1978"
        },
        {
            "id": 116,
            "name": "Fort George Roman Catholic/Residence Couture",
            "city": "Fort George",
            "province": "Quebec",
            "denomination": "Catholic",
            "latitude": "45.828588",
            "longitude": "-74.195841",
            "post_code": "",
            "year_opened": "1937",
            "year_closed": "1981"
        },
        {
            "id": 117,
            "name": "La Tuque",
            "city": "La Tuque",
            "province": "Quebec",
            "denomination": "Anglican",
            "latitude": "47.43778",
            "longitude": "-72.780593",
            "post_code": "G9X 3B4",
            "year_opened": "1963",
            "year_closed": "1978"
        },
        {
            "id": 118,
            "name": "Mistassini Hostels",
            "city": "Mistassini Hostels",
            "province": "Quebec",
            "denomination": "Non-Denominational",
            "latitude": "48.882624",
            "longitude": "-72.233381",
            "post_code": "G8L 6A6",
            "year_opened": "1971",
            "year_closed": "1978"
        },
        {
            "id": 119,
            "name": "Pointe Bleue",
            "city": "Pointe Bleue",
            "province": "Quebec",
            "denomination": "Catholic",
            "latitude": "48.581996",
            "longitude": "-72.230629",
            "post_code": "",
            "year_opened": "1960",
            "year_closed": "1991"
        },
        {
            "id": 120,
            "name": "Battleford",
            "city": "Battleford",
            "province": "Saskatchewan",
            "denomination": "Anglican",
            "latitude": "53.687558",
            "longitude": "-108.572385",
            "post_code": "S0M 0K0",
            "year_opened": "1883",
            "year_closed": "1914"
        },
        {
            "id": 121,
            "name": "Beauval/Ile a la Crosse",
            "city": "Beauval",
            "province": "Saskatchewan",
            "denomination": "Catholic",
            "latitude": "55.15218",
            "longitude": "-107.607293",
            "post_code": "S0M 0G0",
            "year_opened": "1897",
            "year_closed": "1995"
        },
        {
            "id": 122,
            "name": "Cote Improved Federal Day School/School 604",
            "city": "Kamsack",
            "province": "Saskatchewan",
            "denomination": "Presbyterian United",
            "latitude": "51.565",
            "longitude": "-101.894722",
            "post_code": "S0A 1S0",
            "year_opened": "1928",
            "year_closed": "1940"
        },
        {
            "id": 123,
            "name": "Crowstand",
            "city": "Kamsack",
            "province": "Saskatchewan",
            "denomination": "Presbyterian United",
            "latitude": "51.565",
            "longitude": "-101.894722",
            "post_code": "S0A 1S0",
            "year_opened": "1889",
            "year_closed": "1915"
        },
        {
            "id": 124,
            "name": "File Hills",
            "city": "Balcarres",
            "province": "Saskatchewan",
            "denomination": "Presbyterian United",
            "latitude": "50.804747",
            "longitude": "-103.542723",
            "post_code": "S0G 0C0",
            "year_opened": "1889",
            "year_closed": "1949"
        },
        {
            "id": 125,
            "name": "Fort Pelly/St Philips",
            "city": "Fort Pelly",
            "province": "Saskatchewan",
            "denomination": "Catholic",
            "latitude": "51.777835",
            "longitude": "-102.003441",
            "post_code": "S0A 2V0",
            "year_opened": "1905",
            "year_closed": "1913"
        },
        {
            "id": 126,
            "name": "Gordons",
            "city": "Punnichy/Gordons Reserve",
            "province": "Saskatchewan",
            "denomination": "Anglican",
            "latitude": "51.370516",
            "longitude": "-104.296604",
            "post_code": "S0A 3C0",
            "year_opened": "1888",
            "year_closed": "1996"
        },
        {
            "id": 127,
            "name": "Lac La Ronge/All Saints",
            "city": "Lac La Ronge",
            "province": "Saskatchewan",
            "denomination": "Anglican",
            "latitude": "55.04304",
            "longitude": "-104.903304",
            "post_code": "S0J 1L0",
            "year_opened": "1894",
            "year_closed": "1997"
        },
        {
            "id": 128,
            "name": "Lebret/Qu'Appelle",
            "city": "Lebret",
            "province": "Saskatchewan",
            "denomination": "Catholic",
            "latitude": "50.757431",
            "longitude": "-103.704083",
            "post_code": "S0G 2Y0",
            "year_opened": "1884",
            "year_closed": "1998"
        },
        {
            "id": 129,
            "name": "Marieval/Cowesess",
            "city": "Grayson",
            "province": "Saskatchewan",
            "denomination": "Catholic",
            "latitude": "50.720024",
            "longitude": "-102.643016",
            "post_code": "S0A 1E0",
            "year_opened": "1898",
            "year_closed": "1997"
        },
        {
            "id": 130,
            "name": "Muscowequan/Touchwood",
            "city": "Lestock",
            "province": "Saskatchewan",
            "denomination": "Catholic",
            "latitude": "51.298936",
            "longitude": "-103.892806",
            "post_code": "S0A 2G0",
            "year_opened": "1889",
            "year_closed": "1997"
        },
        {
            "id": 131,
            "name": "Prince Albert",
            "city": "Prince Albert",
            "province": "Saskatchewan",
            "denomination": "Anglican",
            "latitude": "53.200113",
            "longitude": "-105.742478",
            "post_code": "S6V 5Z5",
            "year_opened": "1894",
            "year_closed": "1997"
        },
        {
            "id": 132,
            "name": "Regina",
            "city": "Regina",
            "province": "Saskatchewan",
            "denomination": "Non-Denominational",
            "latitude": "50.45",
            "longitude": "-104.61",
            "post_code": "S4P 2Z4",
            "year_opened": "1890",
            "year_closed": "1910"
        },
        {
            "id": 133,
            "name": "Round Lake",
            "city": "Stockholm",
            "province": "Saskatchewan",
            "denomination": "Presbyterian United Church",
            "latitude": "50.660839",
            "longitude": "-102.301617",
            "post_code": "S0A 3Y0",
            "year_opened": "1887",
            "year_closed": "1950"
        },
        {
            "id": 134,
            "name": "St Anthonys/Sacred Heart",
            "city": "Onion Lake",
            "province": "Saskatchewan",
            "denomination": "Catholic",
            "latitude": "53.717104",
            "longitude": "-109.997634",
            "post_code": "S0M 2E0",
            "year_opened": "1894",
            "year_closed": "1974"
        },
        {
            "id": 135,
            "name": "St Michaels/Duck Lake",
            "city": "Duck Lake",
            "province": "Saskatchewan",
            "denomination": "Catholic",
            "latitude": "52.811855",
            "longitude": "-106.226027",
            "post_code": "S0K 1J0",
            "year_opened": "1894",
            "year_closed": "1996"
        },
        {
            "id": 136,
            "name": "St Philips/Kamsack",
            "city": "Kamsack",
            "province": "Saskatchewan",
            "denomination": "Catholic",
            "latitude": "51.565",
            "longitude": "-101.894722",
            "post_code": "S0A 1S0",
            "year_opened": "1928",
            "year_closed": "1969"
        },
        {
            "id": 137,
            "name": "Sturgeon Landing",
            "city": "Sturgeon Landing",
            "province": "Saskatchewan",
            "denomination": "Catholic",
            "latitude": "54.279825",
            "longitude": "-101.818148",
            "post_code": "S0P 0H0",
            "year_opened": "1926",
            "year_closed": "1952"
        },
        {
            "id": 138,
            "name": "Thunderchild/St Henri",
            "city": "Delmas",
            "province": "Saskatchewan",
            "denomination": "Catholic",
            "latitude": "52.928889",
            "longitude": "-108.605",
            "post_code": "S0M 0P0",
            "year_opened": "1901",
            "year_closed": "1948"
        },
        {
            "id": 139,
            "name": "Shubenacadie/St Annes Convent",
            "city": "Shubenacadie",
            "province": "Nova Scotia",
            "denomination": "Catholic",
            "latitude": "45.087964",
            "longitude": "-63.402",
            "post_code": "B0N 2H0",
            "year_opened": "1929",
            "year_closed": "1967"
        }
    ]
}